{
"type": "FeatureCollection",
"name": "steelplants",
"crs": { "type": "name", "properties": { "name": "urn:ogc:def:crs:OGC:1.3:CRS84" } },
"features": [
{ "type": "Feature", "properties": { "Company": "Adhunik Metaliks Ltd", "Location": "Rourkela", "State": "Odisha", "Latitude": 22.31, "Longitude": 84.76, "Hotmetal in MnTPA": 0.09, "Slag generation in MnTPA": 0.04 }, "geometry": { "type": "Point", "coordinates": [ 84.76, 22.31 ] } },
{ "type": "Feature", "properties": { "Company": "Bhushan", "Location": "Meramandli", "State": "Odisha", "Latitude": 20.8, "Longitude": 85.26, "Hotmetal in MnTPA": 4.0, "Slag generation in MnTPA": 1.6 }, "geometry": { "type": "Point", "coordinates": [ 85.26, 20.8 ] } },
{ "type": "Feature", "properties": { "Company": "Bhushan", "Location": "Rangall", "State": "Odisha" }, "geometry": null },
{ "type": "Feature", "properties": { "Company": "Concast", "Location": "Jharsuguda", "State": "Odisha", "Latitude": 21.82, "Longitude": 84.0, "Hotmetal in MnTPA": 0.15, "Slag generation in MnTPA": 0.06 }, "geometry": { "type": "Point", "coordinates": [ 84.0, 21.82 ] } },
{ "type": "Feature", "properties": { "Company": "JSPL", "Location": "Angul", "State": "Odisha", "Latitude": 20.9, "Longitude": 84.98, "Hotmetal in MnTPA": 2.1, "Slag generation in MnTPA": 0.84 }, "geometry": { "type": "Point", "coordinates": [ 84.98, 20.9 ] } },
{ "type": "Feature", "properties": { "Company": "Mesco", "Location": "Khurunti", "State": "Odisha", "Latitude": 20.97, "Longitude": 86.05, "Hotmetal in MnTPA": 0.48, "Slag generation in MnTPA": 0.19 }, "geometry": { "type": "Point", "coordinates": [ 86.05, 20.97 ] } },
{ "type": "Feature", "properties": { "Company": "MSP Metallics", "Location": "Jharsuguda", "State": "Odisha", "Latitude": 21.85, "Longitude": 83.98, "Hotmetal in MnTPA": 0.24, "Slag generation in MnTPA": 0.1 }, "geometry": { "type": "Point", "coordinates": [ 83.98, 21.85 ] } },
{ "type": "Feature", "properties": { "Company": "NINL", "Location": "Duburi", "State": "Odisha", "Latitude": 20.99, "Longitude": 86.02, "Hotmetal in MnTPA": 0.58, "Slag generation in MnTPA": 0.23 }, "geometry": { "type": "Point", "coordinates": [ 86.02, 20.99 ] } },
{ "type": "Feature", "properties": { "Company": "SIAL-RSP", "Location": "Rourkela", "State": "Odisha", "Latitude": 22.21, "Longitude": 84.87, "Hotmetal in MnTPA": 3.08, "Slag generation in MnTPA": 1.23 }, "geometry": { "type": "Point", "coordinates": [ 84.87, 22.21 ] } },
{ "type": "Feature", "properties": { "Company": "Tata Steel", "Location": "Duburi", "State": "Odisha", "Latitude": 20.97, "Longitude": 86.02, "Hotmetal in MnTPA": 2.25, "Slag generation in MnTPA": 0.9 }, "geometry": { "type": "Point", "coordinates": [ 86.02, 20.97 ] } },
{ "type": "Feature", "properties": { "Company": "Visa", "Location": "Duburi", "State": "Odisha", "Latitude": 20.94, "Longitude": 86.06, "Hotmetal in MnTPA": 0.13, "Slag generation in MnTPA": 0.05 }, "geometry": { "type": "Point", "coordinates": [ 86.06, 20.94 ] } },
{ "type": "Feature", "properties": { "Company": "Atibir Steel", "Location": "Giridih", "State": "Jharkhand", "Latitude": 24.14, "Longitude": 86.34, "Hotmetal in MnTPA": 0.75, "Slag generation in MnTPA": 0.3 }, "geometry": { "type": "Point", "coordinates": [ 86.34, 24.14 ] } },
{ "type": "Feature", "properties": { "Company": "Electrosteel", "Location": "Bokaro", "State": "Jharkhand", "Latitude": 23.63, "Longitude": 86.3, "Hotmetal in MnTPA": 1.5, "Slag generation in MnTPA": 0.6 }, "geometry": { "type": "Point", "coordinates": [ 86.3, 23.63 ] } },
{ "type": "Feature", "properties": { "Company": "SAIL-BSL", "Location": "Bokaro", "State": "Jharkhand", "Latitude": 23.68, "Longitude": 86.11, "Hotmetal in MnTPA": 4.5, "Slag generation in MnTPA": 1.35 }, "geometry": { "type": "Point", "coordinates": [ 86.11, 23.68 ] } },
{ "type": "Feature", "properties": { "Company": "Tata Steel", "Location": "Jamshedpur", "State": "Jharkhand", "Latitude": 22.81, "Longitude": 86.24, "Hotmetal in MnTPA": 9.7, "Slag generation in MnTPA": 3.88 }, "geometry": { "type": "Point", "coordinates": [ 86.24, 22.81 ] } },
{ "type": "Feature", "properties": { "Company": "Usha Martin", "Location": "Jamshedpur", "State": "Jharkhand", "Latitude": 22.81, "Longitude": 86.09, "Hotmetal in MnTPA": 0.58, "Slag generation in MnTPA": 0.23 }, "geometry": { "type": "Point", "coordinates": [ 86.09, 22.81 ] } },
{ "type": "Feature", "properties": { "Company": "JSPL", "Location": "Patratu ", "State": "Jharkhand", "Latitude": 23.63, "Longitude": 85.32, "Hotmetal in MnTPA": 6.0, "Slag generation in MnTPA": 2.4 }, "geometry": { "type": "Point", "coordinates": [ 85.32, 23.63 ] } },
{ "type": "Feature", "properties": { "Company": "ECL", "Location": "Khardha", "State": "West Bengal", "Latitude": 22.72, "Longitude": 88.38, "Hotmetal in MnTPA": 0.35, "Slag generation in MnTPA": 0.14 }, "geometry": { "type": "Point", "coordinates": [ 88.38, 22.72 ] } },
{ "type": "Feature", "properties": { "Company": "SAIL-DSP", "Location": "Durgapur", "State": "West Bengal", "Latitude": 23.54, "Longitude": 87.25, "Hotmetal in MnTPA": 1.3, "Slag generation in MnTPA": 0.52 }, "geometry": { "type": "Point", "coordinates": [ 87.25, 23.54 ] } },
{ "type": "Feature", "properties": { "Company": "SAIL-IISCO", "Location": "Burnpur", "State": "West Bengal", "Latitude": 23.67, "Longitude": 86.93, "Hotmetal in MnTPA": 1.35, "Slag generation in MnTPA": 0.54 }, "geometry": { "type": "Point", "coordinates": [ 86.93, 23.67 ] } },
{ "type": "Feature", "properties": { "Company": "Tata Metaliks", "Location": "Kharagpur", "State": "West Bengal", "Latitude": 22.39, "Longitude": 87.28, "Hotmetal in MnTPA": 0.45, "Slag generation in MnTPA": 0.18 }, "geometry": { "type": "Point", "coordinates": [ 87.28, 22.39 ] } },
{ "type": "Feature", "properties": { "Company": "JSPL", "Location": "Raigarh", "State": "Chhattisgarh", "Latitude": 21.92, "Longitude": 83.34, "Hotmetal in MnTPA": 1.35, "Slag generation in MnTPA": 0.54 }, "geometry": { "type": "Point", "coordinates": [ 83.34, 21.92 ] } },
{ "type": "Feature", "properties": { "Company": "Monnet Ispat", "Location": "Raigarh", "State": "Chhattisgarh", "Latitude": 21.99, "Longitude": 83.23, "Hotmetal in MnTPA": 0.53, "Slag generation in MnTPA": 0.21 }, "geometry": { "type": "Point", "coordinates": [ 83.23, 21.99 ] } },
{ "type": "Feature", "properties": { "Company": "SAIL-BSP", "Location": "Bhilai", "State": "Chhattisgarh", "Latitude": 21.18, "Longitude": 81.38, "Hotmetal in MnTPA": 6.41, "Slag generation in MnTPA": 2.56 }, "geometry": { "type": "Point", "coordinates": [ 81.38, 21.18 ] } },
{ "type": "Feature", "properties": { "Company": "Jaiswal Neco", "Location": "Raipur", "State": "Chhattisgarh", "Latitude": 21.23, "Longitude": 81.66, "Hotmetal in MnTPA": 0.65, "Slag generation in MnTPA": 0.26 }, "geometry": { "type": "Point", "coordinates": [ 81.66, 21.23 ] } },
{ "type": "Feature", "properties": { "Company": "NMDC", "Location": "Nagarnar", "State": "Chattisgarh", "Latitude": 19.09, "Longitude": 82.17, "Hotmetal in MnTPA": 3.0, "Slag generation in MnTPA": 1.2 }, "geometry": { "type": "Point", "coordinates": [ 82.17, 19.09 ] } },
{ "type": "Feature", "properties": { "Company": "SAIL-RINL", "Location": "Visakhapatanam", "State": "Andhra Pradesh", "Latitude": 17.76, "Longitude": 83.21, "Hotmetal in MnTPA": 6.7, "Slag generation in MnTPA": 2.68 }, "geometry": { "type": "Point", "coordinates": [ 83.21, 17.76 ] } },
{ "type": "Feature", "properties": { "Company": "Uttam Value", "Location": "Nagpur", "State": "Maharashtra", "Latitude": 20.71, "Longitude": 78.63, "Hotmetal in MnTPA": 1.0, "Slag generation in MnTPA": 0.4 }, "geometry": { "type": "Point", "coordinates": [ 78.63, 20.71 ] } },
{ "type": "Feature", "properties": { "Company": "Sunflag Iron & Steel Co. Limited", "Location": "Bhandara", "State": "Maharashtra", "Latitude": 21.23, "Longitude": 79.63, "Hotmetal in MnTPA": 0.3, "Slag generation in MnTPA": 0.12 }, "geometry": { "type": "Point", "coordinates": [ 79.63, 21.23 ] } },
{ "type": "Feature", "properties": { "Company": "Ispat Industries Limited", "Location": "Dolvi", "State": "Maharastra", "Latitude": 18.69, "Longitude": 73.04, "Hotmetal in MnTPA": 3.0, "Slag generation in MnTPA": 1.2 }, "geometry": { "type": "Point", "coordinates": [ 73.04, 18.69 ] } },
{ "type": "Feature", "properties": { "Company": "JSW", "Location": "Vijayanagar", "State": "Karnataka", "Latitude": 15.18, "Longitude": 76.65, "Hotmetal in MnTPA": 10.0, "Slag generation in MnTPA": 4.0 }, "geometry": { "type": "Point", "coordinates": [ 76.65, 15.18 ] } },
{ "type": "Feature", "properties": { "Company": "Essar Steel Limited", "Location": "Hazira", "State": "Gujarat", "Latitude": 21.11, "Longitude": 72.64, "Hotmetal in MnTPA": 4.6, "Slag generation in MnTPA": 1.84 }, "geometry": { "type": "Point", "coordinates": [ 72.64, 21.11 ] } },
{ "type": "Feature", "properties": { "Company": "SAIL", "Location": "Rourkela", "State": "Odisha", "Latitude": 22.21, "Longitude": 84.87, "Hotmetal in MnTPA": 3.1, "Slag generation in MnTPA": 1.24 }, "geometry": { "type": "Point", "coordinates": [ 84.87, 22.21 ] } },
{ "type": "Feature", "properties": { "Company": "SAIL", "Location": "Salem", "State": "Tamil Nadu", "Latitude": 11.66, "Longitude": 78.03, "Hotmetal in MnTPA": 0.2, "Slag generation in MnTPA": 0.08 }, "geometry": { "type": "Point", "coordinates": [ 78.03, 11.66 ] } },
{ "type": "Feature", "properties": { "Company": "Modern Steels Limited", "Location": "Mandi Gobindgarh", "State": "Punjab", "Latitude": 30.65, "Longitude": 76.32 }, "geometry": { "type": "Point", "coordinates": [ 76.32, 30.65 ] } },
{ "type": "Feature", "properties": { "Company": "Bhusan Steel Limited", "Location": "Ghaziabad", "State": "Uttar Pradesh", "Latitude": 28.65, "Longitude": 77.33 }, "geometry": { "type": "Point", "coordinates": [ 77.33, 28.65 ] } }
]
}
